[ {
  "address" : "23,CLARENDONSTREET,EAST MELBOURNE",
  "lat" : -37.80968063155256,
  "long" : 144.98339868157058,
  "name" : "East Melbourne Specialist Day Hospital",
  "postcode" : 3002
}, {
  "address" : "17,WINDSORAVENUE,GREATER DANDENONG",
  "lat" : -37.951399999673185,
  "long" : 145.1493000009933,
  "name" : "Windsor Avenue Day Surgery",
  "postcode" : 3171
}, {
  "address" : "3,GIBBSTREET,BERWICK",
  "lat" : -38.03458048694108,
  "long" : 145.34465270350745,
  "name" : "Hyperbaric Health Wound Centre Berwick",
  "postcode" : 3806
}, {
  "address" : "1117-1123,HOWITTSTREET,BALLARAT",
  "lat" : -37.54055255892396,
  "long" : 143.83228608782127,
  "name" : "Ballarat Day Procedure Centre",
  "postcode" : 3355
}, {
  "address" : "141,CRANBOURNEROAD,FRANKSTON",
  "lat" : -38.148188631165404,
  "long" : 145.1433792563343,
  "name" : "Bayside Day Procedure and Specialist Centre",
  "postcode" : 3199
}, {
  "address" : "1-7,CHUMSTREET,GREATER BENDIGO",
  "lat" : -36.76189999974264,
  "long" : 144.2615000012861,
  "name" : "Bendigo Day Surgery",
  "postcode" : 3555
}, {
  "address" : "157,JASPERROAD,GLEN EIRA",
  "lat" : -37.920124647499854,
  "long" : 145.0412330560963,
  "name" : "Bentleigh Surgicentre",
  "postcode" : 3204
}, {
  "address" : "22,LANGMORELANE,BERWICK",
  "lat" : -38.03349627064919,
  "long" : 145.346518631688,
  "name" : "Berwick Surgicentre",
  "postcode" : 3806
}, {
  "address" : "206,NEWSTREET,BAYSIDE",
  "lat" : -37.91255964726872,
  "long" : 144.99181708826163,
  "name" : "Brighton Plastic Surgery Centre",
  "postcode" : 3186
}, {
  "address" : "119,PLENTYROAD,BUNDOORA",
  "lat" : -37.692572759265595,
  "long" : 145.06187866367202,
  "name" : "Victorian Gut Centre",
  "postcode" : 3083
}, {
  "address" : "28,CHESTERVILLEROAD,KINGSTON",
  "lat" : -37.96046697506444,
  "long" : 145.05680244051578,
  "name" : "Chesterville Day Hospital",
  "postcode" : 3192
}, {
  "address" : "15,MUNROSTREET,MORELAND",
  "lat" : -37.745016702837994,
  "long" : 144.96477109545003,
  "name" : "Coburg Endoscopy Centre",
  "postcode" : 3058
}, {
  "address" : "1-3,FALKINERCRESCENT,DANDENONG",
  "lat" : -37.97424740736395,
  "long" : 145.22330092014724,
  "name" : "Dandenong Eye Clinic & Day Surgery Centre",
  "postcode" : 3175
}, {
  "address" : "42,STATIONSTREET,DAREBIN",
  "lat" : -37.781101117591355,
  "long" : 145.01757635692113,
  "name" : "Darebin Endoscopy Services",
  "postcode" : 3078
}, {
  "address" : "15,GRIMSHAWSTREET,BANYULE",
  "lat" : -37.70532860742299,
  "long" : 145.1075879281159,
  "name" : "Diaverum Diamond Valley Dialysis Clinic",
  "postcode" : 3088
}, {
  "address" : "185,BOUNDARYROAD,MELBOURNE",
  "lat" : -37.788678726922285,
  "long" : 144.9399082723481,
  "name" : "Diaverum North Melbourne Dialysis Clinic",
  "postcode" : 3051
}, {
  "address" : "33,WANTIRNAROAD,MAROONDAH",
  "lat" : -37.81978389352572,
  "long" : 145.22750215965263,
  "name" : "Eastside Endoscopy Centre",
  "postcode" : 3134
}, {
  "address" : "665,MOUNT ALEXANDERROAD,MOONEE VALLEY",
  "lat" : -37.76579341177677,
  "long" : 144.92363818500797,
  "name" : "Essendon Private Clinic",
  "postcode" : 3039
}, {
  "address" : "544,HAWTHORNROAD,CAULFIELD",
  "lat" : -37.90043471118655,
  "long" : 145.01921419988668,
  "name" : "Glen Eira Day Surgery",
  "postcode" : 3162
}, {
  "address" : "314,WARRIGALROAD,BOROONDARA",
  "lat" : -37.85808925503058,
  "long" : 145.09402560834928,
  "name" : "Glen Iris Private",
  "postcode" : 3146
}, {
  "address" : "177-179,NORTHERNROAD,HEIDELBERG HEIGHTS",
  "lat" : -37.730491857344454,
  "long" : 145.0601726031209,
  "name" : "Heidelberg Endoscopy and Day Surgery Centre",
  "postcode" : 3081
}, {
  "address" : "3-5,SARGOODSTREET,HOBSONS BAY",
  "lat" : -37.86964791162314,
  "long" : 144.82848251398727,
  "name" : "Altona Endoscopy Centre",
  "postcode" : 3018
}, {
  "address" : "179,PRINCESHIGHWAY,WERRIBEE",
  "lat" : -37.89050000043972,
  "long" : 144.68670000161336,
  "name" : "Werribee Endoscopy Centre",
  "postcode" : 3030
}, {
  "address" : "226,UPPER HEIDELBERGROAD,BANYULE",
  "lat" : -37.767000000126345,
  "long" : 145.0448999998922,
  "name" : "Ivanhoe Endoscopy Centre",
  "postcode" : 3079
}, {
  "address" : "201,WELLINGTONPARADE,EAST MELBOURNE",
  "lat" : -37.81676535064923,
  "long" : 144.97867159232348,
  "name" : "Jolimont Endoscopy Centre",
  "postcode" : 3002
}, {
  "address" : "1133,MALVERNROAD,STONNINGTON",
  "lat" : -37.85150000023052,
  "long" : 145.0305000020667,
  "name" : "Malvern Dialysis Clinic",
  "postcode" : 3144
}, {
  "address" : "503/200,HIGHSTREET,MANNINGHAM",
  "lat" : -37.77309999912521,
  "long" : 145.11519999836358,
  "name" : "Manningham Day Procedure Centre",
  "postcode" : 3107
}, {
  "address" : "961,GLEN HUNTLYROAD,CAULFIELD",
  "lat" : -37.8877999997549,
  "long" : 145.03040000102717,
  "name" : "Melbourne Day Surgery Centre",
  "postcode" : 3162
}, {
  "address" : "517,ST KILDAROAD,MELBOURNE",
  "lat" : -37.844599998218285,
  "long" : 144.9790999961274,
  "name" : "Melbourne Endoscopy",
  "postcode" : 3004
}, {
  "address" : "73-79,LITTLE RYRIESTREET,GEELONG",
  "lat" : -38.15107303104584,
  "long" : 144.36321518425174,
  "name" : "Monash IVF Geelong",
  "postcode" : 3220
}, {
  "address" : "1304,HEATHERTONROAD,NOBLE PARK",
  "lat" : -37.9670999974374,
  "long" : 145.18970000018143,
  "name" : "Noble Park Endoscopy Centre",
  "postcode" : 3174
}, {
  "address" : "221,MARIBYRNONGROAD,MOONEE VALLEY",
  "lat" : -37.7711542707837,
  "long" : 144.9093796083322,
  "name" : "Northwest Day Hospital",
  "postcode" : 3032
}, {
  "address" : "73-75,PINESTREET,DAREBIN",
  "lat" : -37.71759999816169,
  "long" : 144.99809999804097,
  "name" : "Reservoir Private Hospital Day Procedure Centre",
  "postcode" : 3073
}, {
  "address" : "1537,POINT NEPEANROAD,CAPEL SOUND",
  "lat" : -38.36183864983953,
  "long" : 144.88364746417318,
  "name" : "Rosebud SurgiCentre",
  "postcode" : 3940
}, {
  "address" : "22,RAKAIAWAY,MELBOURNE",
  "lat" : -37.814499999405946,
  "long" : 144.94099999927332,
  "name" : "Specialist Surgicentre Docklands",
  "postcode" : 3008
}, {
  "address" : "20,BALMORALAVENUE,GREATER DANDENONG",
  "lat" : -37.94949999758302,
  "long" : 145.1495999987063,
  "name" : "Springvale Endoscopy Centre and Day Hospital",
  "postcode" : 3171
}, {
  "address" : "328-330,STATIONROAD,ST ALBANS",
  "lat" : -37.74399999774097,
  "long" : 144.7793999979292,
  "name" : "St Albans Endoscopy Centre",
  "postcode" : 3021
}, {
  "address" : "26A,DICKENSSTREET,PORT PHILLIP",
  "lat" : -37.87310000037661,
  "long" : 144.98219999708175,
  "name" : "St Kilda Day Hospital",
  "postcode" : 3184
}, {
  "address" : "253,WATTLETREEROAD,STONNINGTON",
  "lat" : -37.86365343086712,
  "long" : 145.03939879190406,
  "name" : "Stonnington Day Surgery",
  "postcode" : 3144
}, {
  "address" : "73,KOOYONGROAD,GLEN EIRA",
  "lat" : -37.87021315086868,
  "long" : 145.0178298480926,
  "name" : "Precision Ascend Rehabilitation Centre",
  "postcode" : 3161
}, {
  "address" : "90,DAVIDSTREET,DANDENONG",
  "lat" : -37.97733019123363,
  "long" : 145.21620200000822,
  "name" : "The Digestive Health Centre",
  "postcode" : 3175
}, {
  "address" : "302,SPRINGVALEROAD,MONASH",
  "lat" : -37.88464239909656,
  "long" : 145.16518096022702,
  "name" : "The Glen Endoscopy Centre",
  "postcode" : 3150
}, {
  "address" : "30-32,GLENFERRIEROAD,STONNINGTON",
  "lat" : -37.86396883877176,
  "long" : 145.028282439981,
  "name" : "Toorak - Malvern Day Surgery Centre",
  "postcode" : 3144
}, {
  "address" : "109,MATHOURAROAD,STONNINGTON",
  "lat" : -37.8414000001216,
  "long" : 145.0080000015449,
  "name" : "Toorak Cosmetic Surgery Day Centre",
  "postcode" : 3142
}, {
  "address" : "25-27,DENMARK HILLROAD,BOROONDARA",
  "lat" : -37.832499998788364,
  "long" : 145.05550000045147,
  "name" : "Vision Day Surgery Camberwell",
  "postcode" : 3123
}, {
  "address" : "852,WHITEHORSEROAD,BOX HILL",
  "lat" : -37.81769263146066,
  "long" : 145.11955135237102,
  "name" : "Vision Day Surgery Eastern",
  "postcode" : 3128
}, {
  "address" : "600-602,ST KILDAROAD,MELBOURNE",
  "lat" : -37.850599999262315,
  "long" : 144.98030000216292,
  "name" : "Vision Laser St Kilda Road",
  "postcode" : 3004
}, {
  "address" : "301,BLACKBURNROAD,MONASH",
  "lat" : -37.880349914491866,
  "long" : 145.1466179485385,
  "name" : "Waverley Endoscopy",
  "postcode" : 3149
}, {
  "address" : "243,HEATHSROAD,WERRIBEE",
  "lat" : -37.877485479375,
  "long" : 144.67974820798742,
  "name" : "Westpoint Endoscopy Day Hospital",
  "postcode" : 3030
}, {
  "address" : "145,FURLONGROAD,ST ALBANS",
  "lat" : -37.76103060719381,
  "long" : 144.81626275968642,
  "name" : "Sunshine Private Day Surgery",
  "postcode" : 3021
}, {
  "address" : "30,ELEANORSTREET,FOOTSCRAY",
  "lat" : -37.79198064439993,
  "long" : 144.88538720841157,
  "name" : "Western Gastroenterology Services",
  "postcode" : 3011
}, {
  "address" : "11,DORNOCHDRIVE,SUNBURY",
  "lat" : -37.579799997334774,
  "long" : 144.74960000108146,
  "name" : "Goonawarra Day Hospital",
  "postcode" : 3429
}, {
  "address" : "60,OLYMPICBOULEVARD,MELBOURNE",
  "lat" : -37.825100000314094,
  "long" : 144.98369999984405,
  "name" : "Imaging@Olympic Park",
  "postcode" : 3004
}, {
  "address" : "566,MELTONHIGHWAY,BRIMBANK",
  "lat" : -37.6933507270821,
  "long" : 144.75862580848448,
  "name" : "Sydenham Day Surgery",
  "postcode" : 3037
}, {
  "address" : "20-22,THE AVENUE ,STONNINGTON",
  "lat" : -37.85608533516604,
  "long" : 144.99806392822128,
  "name" : "Windsor Private Hospital",
  "postcode" : 3181
}, {
  "address" : "925,NEPEANHIGHWAY,MORNINGTON",
  "lat" : -38.22543416701268,
  "long" : 145.04961649584612,
  "name" : "Beleura Private Hospital",
  "postcode" : 3931
}, {
  "address" : "198,CANTERBURYROAD,WHITEHORSE",
  "lat" : -37.83284915921392,
  "long" : 145.1552725520318,
  "name" : "Bellbird Private Hospital",
  "postcode" : 3130
}, {
  "address" : "82,MORELANDROAD,MORELAND",
  "lat" : -37.756481975007866,
  "long" : 144.97170731235659,
  "name" : "Brunswick Private Hospital",
  "postcode" : 3056
}, {
  "address" : "29-37,SIMPSONSTREET,EAST MELBOURNE",
  "lat" : -37.81566204715863,
  "long" : 144.9875479277009,
  "name" : "Epworth Cliveden",
  "postcode" : 3002
}, {
  "address" : "152-156,COMOPARADE,KINGSTON",
  "lat" : -37.99062262273265,
  "long" : 145.0728364718891,
  "name" : "Como Private Hospital",
  "postcode" : 3195
}, {
  "address" : "209,COTHAMROAD,KEW",
  "lat" : -37.80869999768228,
  "long" : 145.04829999826075,
  "name" : "Cotham Private Hospital",
  "postcode" : 3101
}, {
  "address" : "298-308,WARRIGALROAD,BOROONDARA",
  "lat" : -37.857299997872026,
  "long" : 145.09420000030926,
  "name" : "Delmont Private Hospital",
  "postcode" : 3146
}, {
  "address" : "1119-1121,DONCASTERROAD,MANNINGHAM",
  "lat" : -37.789994046960416,
  "long" : 145.17149148006246,
  "name" : "Donvale Rehabilitation Hospital",
  "postcode" : 3109
}, {
  "address" : "146,DERBYSTREET,MORELAND",
  "lat" : -37.72322930061436,
  "long" : 144.94740005238384,
  "name" : "Dorset Rehabilitation Centre",
  "postcode" : 3044
}, {
  "address" : "166,CLARENDONSTREET,EAST MELBOURNE",
  "lat" : -37.81069999831264,
  "long" : 144.9840999996207,
  "name" : "Epworth Freemasons",
  "postcode" : 3002
}, {
  "address" : "89,BRIDGEROAD,YARRA",
  "lat" : -37.817659191330094,
  "long" : 144.99287156846748,
  "name" : "Epworth Richmond",
  "postcode" : 3121
}, {
  "address" : "85-93,WILSONSTREET,BAYSIDE",
  "lat" : -37.91368926286334,
  "long" : 145.0025924324617,
  "name" : "Epworth Rehabilitation Brighton",
  "postcode" : 3186
}, {
  "address" : "888,TOORAKROAD,BOROONDARA",
  "lat" : -37.845943031373146,
  "long" : 145.05463256049228,
  "name" : "Epworth Rehabilitation Camberwell",
  "postcode" : 3124
}, {
  "address" : "20,FLEMINGTONROAD,PARKVILLE",
  "lat" : -37.79895825602783,
  "long" : 144.95476277601253,
  "name" : "Frances Perry House",
  "postcode" : 3052
}, {
  "address" : "56-58,BELLERINESTREET,GEELONG",
  "lat" : -38.151035318673756,
  "long" : 144.3643979520347,
  "name" : "Geelong Private Hospital",
  "postcode" : 3220
}, {
  "address" : "29,HILDACRESCENT,BOROONDARA",
  "lat" : -37.81934502341984,
  "long" : 145.03091565571683,
  "name" : "Glenferrie Private Hospital",
  "postcode" : 3122
}, {
  "address" : "246,CLAYTONROAD,CLAYTON",
  "lat" : -37.92086339129026,
  "long" : 145.1208372959259,
  "name" : "Jessie McPherson Private Hospital",
  "postcode" : 3168
}, {
  "address" : "275,MORELANDROAD,MORELAND",
  "lat" : -37.75459999858236,
  "long" : 144.95830000235915,
  "name" : "John Fawkner Private Hospital",
  "postcode" : 3058
}, {
  "address" : "262,MOUNTAINHIGHWAY,WANTIRNA",
  "lat" : -37.84890355872199,
  "long" : 145.22769506456154,
  "name" : "Knox Private Hospital",
  "postcode" : 3152
}, {
  "address" : "12-16,LINACREROAD,BAYSIDE",
  "lat" : -37.942431174793505,
  "long" : 145.00373000184211,
  "name" : "Linacre Private Hospital",
  "postcode" : 3188
}, {
  "address" : "25,BRYSONSTREET,CANTERBURY",
  "lat" : -37.82745243158765,
  "long" : 145.08111809158987,
  "name" : "Linley Clinic",
  "postcode" : 3126
}, {
  "address" : "3-9,WILTON VALECRESCENT,STONNINGTON",
  "lat" : -37.86709999954039,
  "long" : 145.0608000005024,
  "name" : "Malvern Private Hospital",
  "postcode" : 3145
}, {
  "address" : "286,MARYVALEROAD,LATROBE",
  "lat" : -38.215100000773965,
  "long" : 146.4187000017581,
  "name" : "Maryvale Private Hospital",
  "postcode" : 3840
}, {
  "address" : "24-48,BALACLAVAROAD,GLEN EIRA",
  "lat" : -37.86980000035964,
  "long" : 145.0030999999184,
  "name" : "Masada Private Hospital",
  "postcode" : 3183
}, {
  "address" : "220-228,THIRTEENTHSTREET,MILDURA",
  "lat" : -34.18479999790989,
  "long" : 142.14530000117074,
  "name" : "Mildura Health Private Hospital",
  "postcode" : 3500
}, {
  "address" : "25-27,DONCASTER EASTROAD,WHITEHORSE",
  "lat" : -37.81048048736339,
  "long" : 145.19429662375146,
  "name" : "Mitcham Private Hospital",
  "postcode" : 3132
}, {
  "address" : "252-256,CLAYTONROAD,CLAYTON",
  "lat" : -37.9217999978421,
  "long" : 145.12059999948903,
  "name" : "Monash Surgical Private Hospital",
  "postcode" : 3168
}, {
  "address" : "2/69,NORDSVANDRIVE,WODONGA",
  "lat" : -36.13859999806808,
  "long" : 146.87610000361974,
  "name" : "Murray Valley Private Hospital",
  "postcode" : 3690
}, {
  "address" : "134-146,FORDSTREET,BANYULE",
  "lat" : -37.76339999870434,
  "long" : 145.03119999921802,
  "name" : "North Eastern Rehabilitation Centre",
  "postcode" : 3079
}, {
  "address" : "10,GREENHILLSROAD,BUNDOORA",
  "lat" : -37.691300000271056,
  "long" : 145.06189999758254,
  "name" : "Northpark Private Hospital",
  "postcode" : 3083
}, {
  "address" : "525,MCCLELLANDDRIVE,FRANKSTON",
  "lat" : -38.15780752743787,
  "long" : 145.17010860051633,
  "name" : "Peninsula Private Hospital",
  "postcode" : 3910
}, {
  "address" : "36,MT DANDENONGROAD,RINGWOOD EAST",
  "lat" : -37.81139999935721,
  "long" : 145.2439000007464,
  "name" : "Ringwood Private Hospital",
  "postcode" : 3135
}, {
  "address" : "20,FITZGERALDSTREET,SHEPPARTON",
  "lat" : -36.359299997437404,
  "long" : 145.41080000217542,
  "name" : "Shepparton Private Hospital",
  "postcode" : 3630
}, {
  "address" : "212-220,CLAYTONROAD,CLAYTON",
  "lat" : -37.91839999943662,
  "long" : 145.12169999675962,
  "name" : "Sir John Monash Private Hospital",
  "postcode" : 3168
}, {
  "address" : "313-329,PRINCESHIGHWAY,NOBLE PARK",
  "lat" : -37.965699999330376,
  "long" : 145.19250000232182,
  "name" : "South Eastern Private Hospital",
  "postcode" : 3174
}, {
  "address" : "1480-1486,HEATHERTONROAD,DANDENONG",
  "lat" : -37.96999999832248,
  "long" : 145.21329999677647,
  "name" : "St John of God Pinelodge Clinic",
  "postcode" : 3175
}, {
  "address" : "159,GREYSTREET,EAST MELBOURNE",
  "lat" : -37.81192887909013,
  "long" : 144.98446141581698,
  "name" : "St Vincent's Private Hospital East Melbourne",
  "postcode" : 3002
}, {
  "address" : "59-61,VICTORIAPARADE,FITZROY",
  "lat" : -37.807854727156894,
  "long" : 144.97603824786245,
  "name" : "St Vincent's Private Hospital Fitzroy",
  "postcode" : 3065
}, {
  "address" : "31-33,ALBERTROAD,MELBOURNE",
  "lat" : -37.8342979991951,
  "long" : 144.9721367360189,
  "name" : "Albert Road Clinic",
  "postcode" : 3004
}, {
  "address" : "4,VALESTREET,MORNINGTON",
  "lat" : -38.22296983100723,
  "long" : 145.04136340809558,
  "name" : "The Bays Hospital - Mornington",
  "postcode" : 3931
}, {
  "address" : "94-102,TOWNSENDROAD,GREATER GEELONG",
  "lat" : -38.18199999933487,
  "long" : 144.3932000020969,
  "name" : "The Geelong Clinic",
  "postcode" : 3219
}, {
  "address" : "920,PLENTYROAD,BUNDOORA",
  "lat" : -37.71653676275992,
  "long" : 145.0445002665314,
  "name" : "Hyperbaric Health Wound Centre Bundoora",
  "postcode" : 3083
}, {
  "address" : "36,DONCASTER EASTROAD,WHITEHORSE",
  "lat" : -37.81133829547888,
  "long" : 145.19420339168144,
  "name" : "Mitcham Private Hospital",
  "postcode" : 3132
}, {
  "address" : "84-90,HOTHAMSTREET,DAREBIN",
  "lat" : -37.74680418851764,
  "long" : 145.00783550997872,
  "name" : "Panch Day Surgery Centre",
  "postcode" : 3072
}, {
  "address" : "2/55,KANGANDRIVE,BERWICK",
  "lat" : -38.04527898284832,
  "long" : 145.34528777571956,
  "name" : "Casey Radiation Oncology Centre",
  "postcode" : 3806
}, {
  "address" : "153-159,SCORESBYROAD,KNOX",
  "lat" : -37.85550000081666,
  "long" : 145.26829999730987,
  "name" : "The Melbourne Eastern Private Hospital",
  "postcode" : 3155
}, {
  "address" : "535-559,POLICEROAD,MONASH",
  "lat" : -37.93879999890329,
  "long" : 145.21310000112126,
  "name" : "The Valley Private Hospital",
  "postcode" : 3170
}, {
  "address" : "320-324,MALVERNROAD,STONNINGTON",
  "lat" : -37.84809999798511,
  "long" : 144.99719999734546,
  "name" : "The Victoria Clinic",
  "postcode" : 3181
}, {
  "address" : "499,SPRINGVALEROAD,MONASH",
  "lat" : -37.89837420701173,
  "long" : 145.1621446003098,
  "name" : "The Victorian Rehabilitation Centre",
  "postcode" : 3150
}, {
  "address" : "5,STUDLEYAVENUE,KEW",
  "lat" : -37.80649999795942,
  "long" : 145.02399999685264,
  "name" : "St Vincent's Private Hospital Kew",
  "postcode" : 3101
}, {
  "address" : "134-150,TEMPLETONSTREET,WANGARATTA",
  "lat" : -36.34919999805693,
  "long" : 146.31220000211098,
  "name" : "Wangaratta Private Hospital",
  "postcode" : 3677
}, {
  "address" : "216,BURGUNDYSTREET,HEIDELBERG",
  "lat" : -37.75509999934681,
  "long" : 145.0602999998367,
  "name" : "Warringal Private Hospital",
  "postcode" : 3084
}, {
  "address" : "343-357,BLACKBURNROAD,MONASH",
  "lat" : -37.88469999914629,
  "long" : 145.14569999967898,
  "name" : "Waverley Private Hospital",
  "postcode" : 3149
}, {
  "address" : "1-9,MARIONSTREET,FOOTSCRAY",
  "lat" : -37.79305693051671,
  "long" : 144.88564303730533,
  "name" : "Western Private Hospital",
  "postcode" : 3011
}, {
  "address" : "46-52,BURWOODROAD,BOROONDARA",
  "lat" : -37.8213096873844,
  "long" : 145.0228541038476,
  "name" : "Epworth Hawthorn",
  "postcode" : 3122
}, {
  "address" : "412-414,BAYSTREET,BAYSIDE",
  "lat" : -37.90656151141029,
  "long" : 145.00793759242637,
  "name" : "Mandometer Brighton",
  "postcode" : 3186
}, {
  "address" : "100,VICTORIAPARADE,EAST MELBOURNE",
  "lat" : -37.80848966334775,
  "long" : 144.97499844010525,
  "name" : "Victoria Parade Surgery Centre",
  "postcode" : 3002
}, {
  "address" : "437-441,SOUTHROAD,GLEN EIRA",
  "lat" : -37.933052206953896,
  "long" : 145.0366573274747,
  "name" : "Bayside Endoscopy Day Hospital",
  "postcode" : 3204
}, {
  "address" : "664,MOUNTAINHIGHWAY,KNOX",
  "lat" : -37.8418967829431,
  "long" : 145.2629574317944,
  "name" : "Bayswater Day Procedure and Specialist Centre",
  "postcode" : 3153
}, {
  "address" : "92-94,DAVIDSTREET,DANDENONG",
  "lat" : -37.977232782852546,
  "long" : 145.21691022344356,
  "name" : "Corymbia House Day Hospital",
  "postcode" : 3175
}, {
  "address" : "114-116,WELLINGTONPARADE,EAST MELBOURNE",
  "lat" : -37.81630143076921,
  "long" : 144.98630667200354,
  "name" : "East Melbourne Day Procedure Centre",
  "postcode" : 3002
}, {
  "address" : "26,FRANKSTON-FLINDERSROAD,FRANKSTON",
  "lat" : -38.154399997810266,
  "long" : 145.1331000025951,
  "name" : "Frankston Private Hospital",
  "postcode" : 3199
}, {
  "address" : "828,HIGHSTREET,BOROONDARA",
  "lat" : -37.7943999984709,
  "long" : 145.0623999978423,
  "name" : "Kew Endoscopy",
  "postcode" : 3102
}, {
  "address" : "338,DANDENONGROAD,PORT PHILLIP",
  "lat" : -37.86019999818776,
  "long" : 145.0077000035856,
  "name" : "Marie Stopes International East St Kilda",
  "postcode" : 3183
}, {
  "address" : "277-279,CLAYTONROAD,CLAYTON",
  "lat" : -37.921399998943436,
  "long" : 145.12020000028775,
  "name" : "Melbourne Endoscopy Monash Day Procedure Centre",
  "postcode" : 3168
}, {
  "address" : "63,EXHIBITIONSTREET,MELBOURNE",
  "lat" : -37.81456750302361,
  "long" : 144.97143575224803,
  "name" : "Melbourne Oral and Facial Surgery",
  "postcode" : 3000
}, {
  "address" : "19,CLEVELANDROAD,MONASH",
  "lat" : -37.86809999817661,
  "long" : 145.1053000019197,
  "name" : "Skin Cancer Day Surgery",
  "postcode" : 3147
}, {
  "address" : "42-44,CRANBOURNEROAD,FRANKSTON",
  "lat" : -38.14600000102689,
  "long" : 145.13199999925413,
  "name" : "Southern Eye Centre",
  "postcode" : 3199
}, {
  "address" : "200,MALOPSTREET,GEELONG",
  "lat" : -38.14909999713594,
  "long" : 144.36619999978797,
  "name" : "Specialist Surgicentre Geelong",
  "postcode" : 3220
}, {
  "address" : "415,DORSETROAD,MAROONDAH",
  "lat" : -37.808988028437426,
  "long" : 145.2887737397746,
  "name" : "Marie Stopes International Maroondah",
  "postcode" : 3136
}, {
  "address" : "4,WARANADRIVE,CASEY",
  "lat" : -38.031499999521216,
  "long" : 145.26849999968877,
  "name" : "The Hampton Park Women's Health Care Centre",
  "postcode" : 3976
}, {
  "address" : "89,PAISLEYSTREET,FOOTSCRAY",
  "lat" : -37.80050000062517,
  "long" : 144.89509999794276,
  "name" : "Vision Day Surgery Footscray",
  "postcode" : 3011
}, {
  "address" : "12A,KENNEDYSTREET,BRIMBANK",
  "lat" : -37.71966534265192,
  "long" : 144.83383063201245,
  "name" : "Keilor Private",
  "postcode" : 3036
}, {
  "address" : "237-243,NEWSTREET,BAYSIDE",
  "lat" : -37.911889990709646,
  "long" : 144.99153019160875,
  "name" : "Cabrini Brighton",
  "postcode" : 3186
}, {
  "address" : "2-6,HOPETOUNSTREET,GLEN EIRA",
  "lat" : -37.88497070316847,
  "long" : 145.01013729609963,
  "name" : "Cabrini Hopetoun Rehabilitation",
  "postcode" : 3185
}, {
  "address" : "183,WATTLETREEROAD,STONNINGTON",
  "lat" : -37.86246449577536,
  "long" : 145.03355871207637,
  "name" : "Cabrini Malvern",
  "postcode" : 3144
}, {
  "address" : "646-646A,HIGHSTREET,STONNINGTON",
  "lat" : -37.854120199205,
  "long" : 145.0088730074633,
  "name" : "Cabrini Prahran",
  "postcode" : 3181
}, {
  "address" : "494-498,GLEN HUNTLYROAD,GLEN EIRA",
  "lat" : -37.885529391080865,
  "long" : 145.00932148816298,
  "name" : "Cabrini Health Elsternwick Rehabilitation",
  "postcode" : 3185
}, {
  "address" : "1,ARNOLDSTREET,BOX HILL",
  "lat" : -37.81455356744912,
  "long" : 145.11955719218074,
  "name" : "Epworth Eastern",
  "postcode" : 3128
}, {
  "address" : "35,ROSEHILLROAD,MOONEE VALLEY",
  "lat" : -37.748467086817065,
  "long" : 144.8853814398659,
  "name" : "The Essendon Private Hospital",
  "postcode" : 3040
}, {
  "address" : "631,INKERMANROAD,GLEN EIRA",
  "lat" : -37.868941311146095,
  "long" : 145.0188302322736,
  "name" : "Melbourne MediBrain and MediSleep Centre",
  "postcode" : 3161
}, {
  "address" : "1F,ROYALPARADE,PARKVILLE",
  "lat" : -37.79899999784554,
  "long" : 144.95709999634917,
  "name" : "Melbourne Private Hospital",
  "postcode" : 3052
}, {
  "address" : "101,DRUMMONDSTREET,BALLARAT CENTRAL",
  "lat" : -37.557500000422,
  "long" : 143.84759999821355,
  "name" : "St John of God Ballarat Hospital",
  "postcode" : 3350
}, {
  "address" : "133-145,LILYSTREET,BENDIGO",
  "lat" : -36.76207692687203,
  "long" : 144.26400125594057,
  "name" : "St John of God Bendigo Hospital",
  "postcode" : 3550
}, {
  "address" : "3,GIBBSTREET,BERWICK",
  "lat" : -38.03459999967197,
  "long" : 145.34470000124168,
  "name" : "St John of God Berwick Hospital",
  "postcode" : 3806
}, {
  "address" : "80,MYERSSTREET,GEELONG",
  "lat" : -38.15130065516268,
  "long" : 144.35781376816075,
  "name" : "St John of God Geelong Hospital",
  "postcode" : 3220
}, {
  "address" : "136,BOTANICROAD,WARRNAMBOOL",
  "lat" : -38.371199998528716,
  "long" : 142.47940000175734,
  "name" : "St John of God Warrnambool Hospital",
  "postcode" : 3280
}, {
  "address" : "251-265,CRANBOURNEROAD,FRANKSTON",
  "lat" : -38.15296378415355,
  "long" : 145.1563255589735,
  "name" : "St John of God Frankston Rehabilitation Hospital",
  "postcode" : 3199
}, {
  "address" : "40,THE AVENUE ,STONNINGTON",
  "lat" : -37.854999999916046,
  "long" : 144.99849999741588,
  "name" : "The Avenue Hospital",
  "postcode" : 3181
}, {
  "address" : "130,CHURCHSTREET,YARRA",
  "lat" : -37.81476267092033,
  "long" : 144.99965053548837,
  "name" : "The Melbourne Clinic",
  "postcode" : 3121
}, {
  "address" : "33,COWIESTREET,MOORABOOL",
  "lat" : -37.59918076539552,
  "long" : 144.2226728177159,
  "name" : "Ballan District Health & Care",
  "postcode" : 3342
}, {
  "address" : "36,KENNEDYSTREET,STRATHBOGIE",
  "lat" : -36.75917026274372,
  "long" : 145.5700934690104,
  "name" : "Euroa Health Inc",
  "postcode" : 3666
}, {
  "address" : "14-16,LICOLAROAD,WELLINGTON",
  "lat" : -37.97682570141255,
  "long" : 146.78366846988422,
  "name" : "Heyfield Hospital Incorporated",
  "postcode" : 3858
}, {
  "address" : "22,CHURCHSTREET,STRATHBOGIE",
  "lat" : -36.78100413304041,
  "long" : 145.15014416410955,
  "name" : "Nagambie HealthCare",
  "postcode" : 3608
}, {
  "address" : "29-39,MAIN NEERIMROAD,BAW BAW",
  "lat" : -38.02207501145123,
  "long" : 145.95408616676417,
  "name" : "Neerim District Health Service",
  "postcode" : 3831
}, {
  "address" : "30-32,VERDUNDRIVE,CASEY",
  "lat" : -38.024709881552475,
  "long" : 145.31436772254082,
  "name" : "Casey Day Procedure and Specialist Centre",
  "postcode" : 3805
}, {
  "address" : "350,MAINStreet,MORNINGTON",
  "lat" : -38.227743007016116,
  "long" : 145.04392871540296,
  "name" : "Mornington Endoscopy",
  "postcode" : 3931
}, {
  "address" : "26,FRANKSTON-FLINDERSROAD,FRANKSTON",
  "lat" : -38.15441802437112,
  "long" : 145.1330654239092,
  "name" : "Frankston Radiation Oncology Centre",
  "postcode" : 3199
}, {
  "address" : "36,MT DANDENONGROAD,RINGWOOD EAST",
  "lat" : -37.811248289142426,
  "long" : 145.2435163757481,
  "name" : "Ringwood Radiation Oncology Centre",
  "postcode" : 3135
}, {
  "address" : "80,DRUMMONDSTREET,CARLTON",
  "lat" : -37.80481219459396,
  "long" : 144.96800295115773,
  "name" : "Skin & Cancer Foundation Incorporated",
  "postcode" : 3053
}, {
  "address" : "1/18-24A,CLYDEROAD,BERWICK",
  "lat" : -38.032777050531394,
  "long" : 145.34301502051773,
  "name" : "The Victorian Cosmetic Institute",
  "postcode" : 3806
}, {
  "address" : "1-9,MARIONSTREET,FOOTSCRAY",
  "lat" : -37.79307482307407,
  "long" : 144.885656528453,
  "name" : "Western Radiation Oncology Centre",
  "postcode" : 3011
}, {
  "address" : "242A,HOPPERSLANE,WERRIBEE",
  "lat" : -37.88703673420229,
  "long" : 144.70075661907964,
  "name" : "Wyndham Clinic",
  "postcode" : 3030
}, {
  "address" : "230,COOPERSTREET,EPPING",
  "lat" : -37.650054344371185,
  "long" : 145.00920463325562,
  "name" : "Epping Radiation Oncology Centre",
  "postcode" : 3076
}, {
  "address" : "69,MAHONEYSROAD,FOREST HILL",
  "lat" : -37.83628535119284,
  "long" : 145.16640257620062,
  "name" : "Forest Hill Dialysis Clinic",
  "postcode" : 3131
}, {
  "address" : "920,PLENTYROAD,BUNDOORA",
  "lat" : -37.71653676275992,
  "long" : 145.0445002665314,
  "name" : "La Trobe Private Hospital",
  "postcode" : 3083
}, {
  "address" : "5-9,WOODSTREET,BALLARAT CENTRAL",
  "lat" : -37.54307480224062,
  "long" : 143.85198507533363,
  "name" : "Ballarat Surgicentre",
  "postcode" : 3350
}, {
  "address" : "1/55,KANGANDRIVE,BERWICK",
  "lat" : -38.045261092342145,
  "long" : 145.34529221524363,
  "name" : "St John of God Berwick Day Oncology Centre",
  "postcode" : 3806
}, {
  "address" : "93,WELLSROAD,KINGSTON",
  "lat" : -38.033713913058854,
  "long" : 145.13456717262528,
  "name" : "Chelsea Heights Day Surgery & Endoscopy",
  "postcode" : 3196
}, {
  "address" : "1,EPWORTHPLACE,GREATER GEELONG",
  "lat" : -38.19422551896096,
  "long" : 144.30493953564704,
  "name" : "Epworth Geelong",
  "postcode" : 3216
}, {
  "address" : "493,BALLARATROAD,BRIMBANK",
  "lat" : -37.77769001024471,
  "long" : 144.83252511623758,
  "name" : "Dr Scope",
  "postcode" : 3020
}, {
  "address" : "271,CLAYTONROAD,CLAYTON",
  "lat" : -37.920905830461066,
  "long" : 145.1202883731303,
  "name" : "Monash House Private Hospital",
  "postcode" : 3168
}, {
  "address" : "26,RYOTSTREET,WARRNAMBOOL",
  "lat" : -38.3806233413673,
  "long" : 142.47400135800584,
  "name" : "South West Regional Cancer Centre",
  "postcode" : 3280
}, {
  "address" : "645-647,BURWOODHWY,WHITEHORSE",
  "lat" : -37.85856492035796,
  "long" : 145.19957916789838,
  "name" : "Vermont Private Hospital",
  "postcode" : 3133
}, {
  "address" : "488-490,SOUTHROAD,KINGSTON",
  "lat" : -37.935405070889004,
  "long" : 145.0500684803369,
  "name" : "Holmesglen Private Hospital",
  "postcode" : 3189
}, {
  "address" : "320,VICTORIAPARADE,EAST MELBOURNE",
  "lat" : -37.80928732865735,
  "long" : 144.98228787012422,
  "name" : "Epworth Freemasons",
  "postcode" : 3002
}, {
  "address" : "147-149,FURLONGROAD,ST ALBANS",
  "lat" : -37.761045094814854,
  "long" : 144.8159971761211,
  "name" : "Fresenius Medical Care Sunshine Dialysis Clinic",
  "postcode" : 3021
}, {
  "address" : "41,VICTORIAPARADE,FITZROY",
  "lat" : -37.807697375454495,
  "long" : 144.97456364838067,
  "name" : "Genesis Care Radiation Oncology Centre St Vincent's Hospital Melbourne",
  "postcode" : 3065
}, {
  "address" : "216-240,ONTARIOAVENUE,MILDURA",
  "lat" : -34.18549999918357,
  "long" : 142.14289999772006,
  "name" : "Mildura Base Hospital",
  "postcode" : 3500
}, {
  "address" : "183,WATTLETREEROAD,STONNINGTON",
  "lat" : -37.86232730050219,
  "long" : 145.03359865768115,
  "name" : "Genesis Care Radiation Oncology Centre - Cabrini Malvern",
  "postcode" : 3144
}, {
  "address" : "260,KOOYONGROAD,CAULFIELD",
  "lat" : -37.88239999768889,
  "long" : 145.01669999976988,
  "name" : "Caulfield General Medical Centre",
  "postcode" : 3162
}, {
  "address" : "42-48,KENTSTREET,MAFFRA",
  "lat" : -37.96119999756921,
  "long" : 146.9834000023094,
  "name" : "Central Gippsland Health Service ",
  "postcode" : 3860
}, {
  "address" : "155,GUTHRIDGEPARADE,SALE",
  "lat" : -38.107999998554114,
  "long" : 147.08079999710708,
  "name" : "Central Gippsland Health Service ",
  "postcode" : 3850
}, {
  "address" : "24-32,BROADWAYSTREET,COBRAM",
  "lat" : -35.91649999782858,
  "long" : 145.6511999964128,
  "name" : "Cobram District Health",
  "postcode" : 3644
}, {
  "address" : "144-158,KING GEORGESTREET,COHUNA",
  "lat" : -35.800299997223554,
  "long" : 144.2146999985289,
  "name" : "Cohuna District Hospital",
  "postcode" : 3568
}, {
  "address" : "12,CONNORSTREET,COLAC",
  "lat" : -38.341499998239584,
  "long" : 143.58389999735212,
  "name" : "Colac Area Health",
  "postcode" : 3250
}, {
  "address" : "274-304,CRAIGIEBURNROAD,CRAIGIEBURN",
  "lat" : -37.59639999955494,
  "long" : 144.9197999983716,
  "name" : "Craigieburn Health Service",
  "postcode" : 3064
}, {
  "address" : "140-154,SLADENSTREET,CRANBOURNE",
  "lat" : -38.11320000092732,
  "long" : 145.28040000083453,
  "name" : "Cranbourne Integrated Care Centre",
  "postcode" : 3977
}, {
  "address" : "135,DAVIDSTREET,DANDENONG",
  "lat" : -37.97700000103843,
  "long" : 145.2185000031382,
  "name" : "Dandenong Hospital",
  "postcode" : 3175
}, {
  "address" : "720,SWANSTONSTREET,CARLTON",
  "lat" : -37.7992999994204,
  "long" : 144.96450000207685,
  "name" : "Royal Dental Hospital ",
  "postcode" : 3053
}, {
  "address" : "29-35,GRANTSTREET,BACCHUS MARSH",
  "lat" : -37.67810000058025,
  "long" : 144.43249999705014,
  "name" : "Djerriwarrh Health Services ",
  "postcode" : 3340
}, {
  "address" : "89-91,CROMIESTREET,RUPANYUP",
  "lat" : -36.636654701633454,
  "long" : 142.63159018884022,
  "name" : "West Wimmera Health Service ",
  "postcode" : 3388
}, {
  "address" : "9-29,GIRDLESTONESTREET,ARARAT",
  "lat" : -37.278700000643866,
  "long" : 142.9323000008733,
  "name" : "East Grampians Health Service ",
  "postcode" : 3377
}, {
  "address" : "21,DELACOMBEWAY,WILLAURA",
  "lat" : -37.54509999906404,
  "long" : 142.74589999797757,
  "name" : "East Grampians Health Service ",
  "postcode" : 3379
}, {
  "address" : "24-26,DUNCANSTREET,BIRCHIP",
  "lat" : -35.98019999947239,
  "long" : 142.91589999937798,
  "name" : "East Wimmera Health Service ",
  "postcode" : 3483
}, {
  "address" : "4,LEARMONTHSTREET,CHARLTON",
  "lat" : -36.26923847286695,
  "long" : 143.35250553947887,
  "name" : "East Wimmera Health Service ",
  "postcode" : 3525
}, {
  "address" : "1A,AITKENAVENUE,DONALD",
  "lat" : -36.36659999803853,
  "long" : 142.97640000319123,
  "name" : "East Wimmera Health Service ",
  "postcode" : 3480
}, {
  "address" : "52,NORTH WESTERNROAD,ST ARNAUD",
  "lat" : -36.60939999906978,
  "long" : 143.24650000018318,
  "name" : "East Wimmera Health Service ",
  "postcode" : 3478
}, {
  "address" : "19,GRANDVIEWSTREET,WYCHEPROOF",
  "lat" : -36.078699998017136,
  "long" : 143.23399999701928,
  "name" : "East Wimmera Health Service ",
  "postcode" : 3527
}, {
  "address" : "226,SERVICESTREET,ECHUCA",
  "lat" : -36.138199998855846,
  "long" : 144.74859999903916,
  "name" : "Echuca Regional Health",
  "postcode" : 3564
}, {
  "address" : "124-134,ELIZABETHSTREET,EDENHOPE",
  "lat" : -37.03519999862764,
  "long" : 141.2890999984256,
  "name" : "Edenhope & District Hospital",
  "postcode" : 3318
}, {
  "address" : "2,HASTINGSROAD,FRANKSTON",
  "lat" : -38.1508999980369,
  "long" : 145.12929999865827,
  "name" : "Frankston Hospital",
  "postcode" : 3199
}, {
  "address" : "65-77,BRIDGESTREET,KORUMBURRA",
  "lat" : -38.43039999836797,
  "long" : 145.82850000309284,
  "name" : "Gippsland Southern Health Service ",
  "postcode" : 3950
}, {
  "address" : "64,KOONWARRAROAD,LEONGATHA",
  "lat" : -38.487300000116775,
  "long" : 145.95009999710967,
  "name" : "Gippsland Southern Health Service ",
  "postcode" : 3953
}, {
  "address" : "2-48,GRAHAMSTREET,SHEPPARTON",
  "lat" : -36.36309999859304,
  "long" : 145.4042000021097,
  "name" : "Shepparton Hospital",
  "postcode" : 3630
}, {
  "address" : "64-68,PARKSTREET,TATURA",
  "lat" : -36.43929999984489,
  "long" : 145.22529999886459,
  "name" : "Tatura Public Hospital",
  "postcode" : 3616
}, {
  "address" : "14,COYLESTREET,RUSHWORTH",
  "lat" : -36.58790000090916,
  "long" : 145.00850000199526,
  "name" : "Waranga Memorial Hospital",
  "postcode" : 3612
}, {
  "address" : "12,COOPERSTREET,ALEXANDRA",
  "lat" : -37.195300000886114,
  "long" : 145.71610000020334,
  "name" : "Alexandra District Hospital",
  "postcode" : 3714
}, {
  "address" : "36-42,COBDENSTREET,BRIGHT",
  "lat" : -36.73299999791341,
  "long" : 146.9661000000343,
  "name" : "Alpine Health ",
  "postcode" : 3741
}, {
  "address" : "2-8,HOLLONDSSTREET,MOUNT BEAUTY",
  "lat" : -36.74329999757268,
  "long" : 147.16939999962474,
  "name" : "Alpine Health ",
  "postcode" : 3699
}, {
  "address" : "30-32,ODONNELLAVENUE,MYRTLEFORD",
  "lat" : -36.554399999558846,
  "long" : 146.72909999596442,
  "name" : "Alpine Health ",
  "postcode" : 3737
}, {
  "address" : "39,ALBERTSTREET,UPPER FERNTREE GULLY",
  "lat" : -37.898699998348974,
  "long" : 145.31360000364916,
  "name" : "Angliss Hospital",
  "postcode" : 3156
}, {
  "address" : "145,STUDLEYROAD,HEIDELBERG",
  "lat" : -37.75649999735783,
  "long" : 145.0604000019238,
  "name" : "Austin Hospital",
  "postcode" : 3084
}, {
  "address" : "300,WATERDALEROAD,HEIDELBERG HEIGHTS",
  "lat" : -37.75609999837442,
  "long" : 145.04739999795882,
  "name" : "Heidelberg Repatriation Hospital",
  "postcode" : 3081
}, {
  "address" : "122,DAYSTREET,BAIRNSDALE",
  "lat" : -37.83170000020576,
  "long" : 147.60830000096388,
  "name" : "Bairnsdale Regional Health Service",
  "postcode" : 3875
}, {
  "address" : "1,DRUMMONDSTREET,BALLARAT CENTRAL",
  "lat" : -37.55869999811797,
  "long" : 143.84740000257665,
  "name" : "Ballarat Hospital",
  "postcode" : 3350
}, {
  "address" : "102,ASCOTSTREET,BALLARAT CENTRAL",
  "lat" : -37.56390000040076,
  "long" : 143.84189999840044,
  "name" : "Queen Elizabeth Centre",
  "postcode" : 3350
}, {
  "address" : "272-322,RYRIESTREET,GEELONG",
  "lat" : -38.151199999561726,
  "long" : 144.36540000141355,
  "name" : "University Hospital Geelong",
  "postcode" : 3220
}, {
  "address" : "45-99,BALLARATROAD,NORTH GEELONG",
  "lat" : -38.119299999756336,
  "long" : 144.33600000285054,
  "name" : "McKellar Centre ",
  "postcode" : 3215
}, {
  "address" : "235,GRAHAMSTREET,WONTHAGGI",
  "lat" : -38.608199997577,
  "long" : 145.58089999901003,
  "name" : "Bass Coast Health",
  "postcode" : 3995
}, {
  "address" : "24-28,HAVELOCKSTREET,BEAUFORT",
  "lat" : -37.43079999727545,
  "long" : 143.38220000291147,
  "name" : "Beaufort & Skipton Health Service ",
  "postcode" : 3373
}, {
  "address" : "2,BLAKESTREET,SKIPTON",
  "lat" : -37.684199998686594,
  "long" : 143.36760000101847,
  "name" : "Beaufort & Skipton Health Service ",
  "postcode" : 3361
}, {
  "address" : "52,SYDNEYROAD,BEECHWORTH",
  "lat" : -36.349499999159825,
  "long" : 146.69139999904257,
  "name" : "Beechworth Health Service",
  "postcode" : 3747
}, {
  "address" : "47-63,COSTERSTREET,BENALLA",
  "lat" : -36.55490000055164,
  "long" : 145.99350000171245,
  "name" : "Benalla Health",
  "postcode" : 3672
}, {
  "address" : "100A,BARNARDSTREET,BENDIGO",
  "lat" : -36.7512999985985,
  "long" : 144.28000000132357,
  "name" : "Bendigo Health ",
  "postcode" : 3550
}, {
  "address" : "62,LUCANSTREET,BENDIGO",
  "lat" : -36.748699999597726,
  "long" : 144.28289999789956,
  "name" : "Bendigo Hospital",
  "postcode" : 3550
}, {
  "address" : "31,KINIRYSTREET,BOORT",
  "lat" : -36.11199999877695,
  "long" : 143.72730000283258,
  "name" : "Boort District Health",
  "postcode" : 3537
}, {
  "address" : "8,ARNOLDSTREET,BOX HILL",
  "lat" : -37.813912147111175,
  "long" : 145.1183650720172,
  "name" : "Box Hill Hospital",
  "postcode" : 3128
}, {
  "address" : "35-57,JOHNSTONESTREET,JACANA",
  "lat" : -37.68419999946634,
  "long" : 144.9134000021489,
  "name" : "Broadmeadows Health Service",
  "postcode" : 3047
}, {
  "address" : "1231,PLENTYROAD,BUNDOORA",
  "lat" : -37.7010999987611,
  "long" : 145.0547999964157,
  "name" : "Bundoora Extended Care Centre",
  "postcode" : 3083
}, {
  "address" : "476-482,KOOYONGROAD,CAULFIELD",
  "lat" : -37.89679999895444,
  "long" : 145.0131999997878,
  "name" : "Calvary Health Care Bethlehem",
  "postcode" : 3162
}, {
  "address" : "104,STUDLEY PARKROAD,KEW",
  "lat" : -37.80499999843229,
  "long" : 145.01579999948794,
  "name" : "Caritas Christi Hospice Ltd",
  "postcode" : 3101
}, {
  "address" : "62-70,KANGANDRIVE,BERWICK",
  "lat" : -38.04500000091949,
  "long" : 145.34700000275674,
  "name" : "Casey Hospital",
  "postcode" : 3806
}, {
  "address" : "63,RUSSELLSTREET,CASTERTON",
  "lat" : -37.590300000130064,
  "long" : 141.39280000299982,
  "name" : "Casterton Memorial Hospital",
  "postcode" : 3311
}, {
  "address" : "377,MAROONDAHHIGHWAY,HEALESVILLE",
  "lat" : -37.6468999968465,
  "long" : 145.52880000282317,
  "name" : "Healesville and District Hospital",
  "postcode" : 3777
}, {
  "address" : "1,NAPIERSTREET,CRESWICK",
  "lat" : -37.42059999999055,
  "long" : 143.89169999951648,
  "name" : "Creswick District Hospital",
  "postcode" : 3363
}, {
  "address" : "15,HOSPITALSTREET,DAYLESFORD",
  "lat" : -37.33759999959649,
  "long" : 144.1454999962846,
  "name" : "Daylesford District Hospital",
  "postcode" : 3460
}, {
  "address" : "8,GOSNEYSTREET,WINCHELSEA",
  "lat" : -38.243099997537044,
  "long" : 143.98420000122567,
  "name" : "Hesse Rural Health Service ",
  "postcode" : 3241
}, {
  "address" : "21,BARCLAYSTREET,HEYWOOD",
  "lat" : -38.13789999794962,
  "long" : 141.62460000115732,
  "name" : "Heywood Rural Health",
  "postcode" : 3304
}, {
  "address" : "3,HOSPITALSTREET,INGLEWOOD",
  "lat" : -36.57229999718668,
  "long" : 143.87340000243483,
  "name" : "Inglewood and Districts Health Service",
  "postcode" : 3517
}, {
  "address" : "13-15,BURGOYNESTREET,KERANG",
  "lat" : -35.724199998342364,
  "long" : 143.91759999886378,
  "name" : "Kerang District Health",
  "postcode" : 3579
}, {
  "address" : "1,ANDERSONROAD,KILMORE",
  "lat" : -37.30180000073215,
  "long" : 144.958099998308,
  "name" : "Kilmore and District Hospital",
  "postcode" : 3764
}, {
  "address" : "400,WARRIGALROAD,HEATHERTON",
  "lat" : -37.95439999870239,
  "long" : 145.07989999706143,
  "name" : "Kingston Centre",
  "postcode" : 3202
}, {
  "address" : "215,ROSSITERROAD,KOO WEE RUP",
  "lat" : -38.20156167070301,
  "long" : 145.48494991168604,
  "name" : "Kooweerup Regional Health Service",
  "postcode" : 3981
}, {
  "address" : "86-96,FENAUGHTYSTREET,KYABRAM",
  "lat" : -36.31529999765621,
  "long" : 145.04219999954725,
  "name" : "Kyabram and District Health Services",
  "postcode" : 3620
}, {
  "address" : "7-25,CAROLINE CHISHOLMDRIVE,KYNETON",
  "lat" : -37.25450000039027,
  "long" : 144.47010000099078,
  "name" : "Kyneton District Health Service",
  "postcode" : 3444
}, {
  "address" : "10,VILLAGEAVENUE,TRARALGON",
  "lat" : -38.218799999541076,
  "long" : 146.47140000009125,
  "name" : "Latrobe Regional Hospital",
  "postcode" : 3844
}, {
  "address" : "1,ALBERTSTREET,LORNE",
  "lat" : -38.545499998102095,
  "long" : 143.98080000283028,
  "name" : "Lorne Community Hospital",
  "postcode" : 3232
}, {
  "address" : "1,CHAPELSTREET,MALDON",
  "lat" : -36.99269999858797,
  "long" : 144.0640000031016,
  "name" : "Maldon Hospital",
  "postcode" : 3463
}, {
  "address" : "28,BRITTSTREET,OUYEN",
  "lat" : -35.07449999771937,
  "long" : 142.31310000247163,
  "name" : "Mallee Track Health and Community Service ",
  "postcode" : 3490
}, {
  "address" : "37-39,PIONEERSTREET,MANANGATANG",
  "lat" : -35.050999998315824,
  "long" : 142.88080000121272,
  "name" : "Robinvale District Health Services ",
  "postcode" : 3546
}, {
  "address" : "51-53,HIGHETTSTREET,MANSFIELD",
  "lat" : -37.05760483906694,
  "long" : 146.08650835248312,
  "name" : "Mansfield District Hospital",
  "postcode" : 3722
}, {
  "address" : "1-15,DAVEYDRIVE,RINGWOOD EAST",
  "lat" : -37.80699999925665,
  "long" : 145.2554000018266,
  "name" : "Maroondah Hospital",
  "postcode" : 3135
}, {
  "address" : "20,HAVELOCKSTREET,DUNOLLY",
  "lat" : -36.85539999854506,
  "long" : 143.7352000030776,
  "name" : "Maryborough District Health Service ",
  "postcode" : 3472
}, {
  "address" : "75,CLARENDONSTREET,MARYBOROUGH",
  "lat" : -37.04509999864287,
  "long" : 143.7383000035741,
  "name" : "Maryborough District Health Service ",
  "postcode" : 3465
}, {
  "address" : "39-55,HOSPITALSTREET,HEATHCOTE",
  "lat" : -36.92610000020225,
  "long" : 144.70970000362257,
  "name" : "Heathcote Health",
  "postcode" : 3523
}, {
  "address" : "195-209,BARRIESROAD,MELTON WEST",
  "lat" : -37.686500001197075,
  "long" : 144.55900000055692,
  "name" : "Melton Health",
  "postcode" : 3337
}, {
  "address" : "163,STUDLEYROAD,HEIDELBERG",
  "lat" : -37.75629999786149,
  "long" : 145.06090000231995,
  "name" : "Mercy Hospital for Women",
  "postcode" : 3084
}, {
  "address" : "216-240,ONTARIOAVENUE,MILDURA",
  "lat" : -34.18549999918357,
  "long" : 142.14289999772006,
  "name" : "Mildura Base Hospital",
  "postcode" : 3500
}, {
  "address" : "246,CLAYTONROAD,CLAYTON",
  "lat" : -37.92049999827632,
  "long" : 145.1224000002874,
  "name" : "Monash Medical Centre ",
  "postcode" : 3168
}, {
  "address" : "823-865,CENTREROAD,BENTLEIGH EAST",
  "lat" : -37.92089999772667,
  "long" : 145.06350000183207,
  "name" : "Monash Medical Centre ",
  "postcode" : 3165
}, {
  "address" : "32,VILLIERSSTREET,PORT FAIRY",
  "lat" : -38.38149999754895,
  "long" : 142.2271000000562,
  "name" : "Moyne Health Services ",
  "postcode" : 3284
}, {
  "address" : "142,CORNISHSTREET,CASTLEMAINE",
  "lat" : -37.052599999007455,
  "long" : 144.2120999995495,
  "name" : "Castlemaine Health",
  "postcode" : 3450
}, {
  "address" : "36-44,MCDONELLSTREET,NATHALIA",
  "lat" : -36.05719999845503,
  "long" : 145.1977000017239,
  "name" : "Nathalia District Hospital",
  "postcode" : 3638
}, {
  "address" : "35-47,GREENSTREET,WANGARATTA",
  "lat" : -36.35429999864196,
  "long" : 146.3143000011366,
  "name" : "Northeast Health Wangaratta",
  "postcode" : 3677
}, {
  "address" : "2,KATAMATITE-NATHALIAROAD,NUMURKAH",
  "lat" : -36.100000000755784,
  "long" : 145.44380000239946,
  "name" : "Numurkah District Health Service",
  "postcode" : 3636
}, {
  "address" : "6,MONT ALBERTROAD,CANTERBURY",
  "lat" : -37.81629999978959,
  "long" : 145.06180000286415,
  "name" : "O'Connell Family Centre",
  "postcode" : 3126
}, {
  "address" : "10,EASTONSTREET,OMEO",
  "lat" : -37.09809999797526,
  "long" : 147.59719999856975,
  "name" : "Omeo District Health",
  "postcode" : 3898
}, {
  "address" : "104,BOUNDARYROAD,ORBOST",
  "lat" : -37.70169999773039,
  "long" : 148.4655999988407,
  "name" : "Orbost Regional Health",
  "postcode" : 3888
}, {
  "address" : "75,MCLACHLANSTREET,APOLLO BAY",
  "lat" : -38.75389999832197,
  "long" : 143.66460000002743,
  "name" : "Otway Health",
  "postcode" : 3233
}, {
  "address" : "321-345,BURWOODHIGHWAY,FOREST HILL",
  "lat" : -37.85240000004057,
  "long" : 145.16399999714972,
  "name" : "Peter James Centre",
  "postcode" : 3131
}, {
  "address" : "305,GRATTANSTREET,MELBOURNE",
  "lat" : -37.79999854813153,
  "long" : 144.9566333484421,
  "name" : "Peter MacCallum Cancer Centre",
  "postcode" : 3000
}, {
  "address" : "141-151,BENTINCKSTREET,PORTLAND",
  "lat" : -38.341200000538244,
  "long" : 141.6062000020201,
  "name" : "Portland District Health",
  "postcode" : 3305
}, {
  "address" : "37-53,THOMASSTREET,NOBLE PARK",
  "lat" : -37.97219999793028,
  "long" : 145.17830000100525,
  "name" : "Queen Elizabeth Centre",
  "postcode" : 3174
}, {
  "address" : "128-132,LATJEROAD,ROBINVALE",
  "lat" : -34.58449999860823,
  "long" : 142.781999997476,
  "name" : "Robinvale District Health Services",
  "postcode" : 3549
}, {
  "address" : "1,PASCOESTREET,ROCHESTER",
  "lat" : -36.36650000007072,
  "long" : 144.6978000031269,
  "name" : "Rochester and Elmore District Health Service",
  "postcode" : 3561
}, {
  "address" : "1527,POINT NEPEANROAD,CAPEL SOUND",
  "lat" : -38.361900000801846,
  "long" : 144.88459999806437,
  "name" : "Rosebud Hospital",
  "postcode" : 3940
}, {
  "address" : "300,GRATTANSTREET,PARKVILLE",
  "lat" : -37.79919999783953,
  "long" : 144.95589999826603,
  "name" : "Royal Melbourne Hospital",
  "postcode" : 3052
}, {
  "address" : "34-56,POPLARROAD,PARKVILLE",
  "lat" : -37.77829999773324,
  "long" : 144.94879999804746,
  "name" : "Royal Melbourne Hospital ",
  "postcode" : 3052
}, {
  "address" : "1,YARRABOULEVARD,KEW",
  "lat" : -37.789299997626074,
  "long" : 145.0238000010465,
  "name" : "Royal Talbot Rehabilitation Centre",
  "postcode" : 3101
}, {
  "address" : "12,MITCHELLPLACE,HOPETOUN",
  "lat" : -35.73259999872676,
  "long" : 142.3668999965872,
  "name" : "Rural Northwest Health ",
  "postcode" : 3396
}, {
  "address" : "18,DIMBOOLAROAD,WARRACKNABEAL",
  "lat" : -36.25279999761713,
  "long" : 142.38210000065098,
  "name" : "Rural Northwest Health ",
  "postcode" : 3393
}, {
  "address" : "191-193,BLUFFROAD,SANDRINGHAM",
  "lat" : -37.96099999842689,
  "long" : 145.01849999967223,
  "name" : "Sandringham & District Memorial Hospital",
  "postcode" : 3191
}, {
  "address" : "1,BRETONNEUXSTREET,SEYMOUR",
  "lat" : -37.018499999733145,
  "long" : 145.13859999921,
  "name" : "Seymour Health",
  "postcode" : 3660
}, {
  "address" : "83,STATIONROAD,FOSTER",
  "lat" : -38.658699999755505,
  "long" : 146.20620000370988,
  "name" : "South Gippsland Hospital ",
  "postcode" : 3960
}, {
  "address" : "9,ROBINSONSTREET,CAMPERDOWN",
  "lat" : -38.23710000044317,
  "long" : 143.13790000249284,
  "name" : "South West Healthcare ",
  "postcode" : 3260
}, {
  "address" : "25,RYOTSTREET,WARRNAMBOOL",
  "lat" : -38.380399997707976,
  "long" : 142.47280000130908,
  "name" : "South West Healthcare ",
  "postcode" : 3280
}, {
  "address" : "283,COTHAMROAD,KEW",
  "lat" : -37.809199999334936,
  "long" : 145.05319999887874,
  "name" : "St George's Health Service ",
  "postcode" : 3101
}, {
  "address" : "41,VICTORIAPARADE,FITZROY",
  "lat" : -37.806799999501855,
  "long" : 144.97510000361396,
  "name" : "St Vincent's Hospital",
  "postcode" : 3065
}, {
  "address" : "27-29,SLOANESTREET,STAWELL",
  "lat" : -37.059399999013394,
  "long" : 142.78140000302744,
  "name" : "Stawell Regional Health",
  "postcode" : 3380
}, {
  "address" : "176-190,FURLONGROAD,ST ALBANS",
  "lat" : -37.75989999903209,
  "long" : 144.8160000002044,
  "name" : "Sunshine Hospital",
  "postcode" : 3021
}, {
  "address" : "50-54,SPLATTSTREET,SWAN HILL",
  "lat" : -35.34059999788279,
  "long" : 143.55659999734385,
  "name" : "Swan Hill District Health ",
  "postcode" : 3585
}, {
  "address" : "25,BARREESTREET,TALLANGATTA",
  "lat" : -36.21379999755352,
  "long" : 147.18389999847804,
  "name" : "Tallangatta Health Service",
  "postcode" : 3700
}, {
  "address" : "13,AUSTINAVENUE,TERANG",
  "lat" : -38.23939999860686,
  "long" : 142.90240000222644,
  "name" : "Terang and Mortlake Health Service ",
  "postcode" : 3264
}, {
  "address" : "55,COMMERCIALROAD,MELBOURNE",
  "lat" : -37.84560000083869,
  "long" : 144.98210000200217,
  "name" : "The Alfred",
  "postcode" : 3004
}, {
  "address" : "185,COOPERSTREET,EPPING",
  "lat" : -37.65260000096689,
  "long" : 145.01510000285253,
  "name" : "The Northern Hospital",
  "postcode" : 3076
}, {
  "address" : "50,FLEMINGTONROAD,PARKVILLE",
  "lat" : -37.7939999984127,
  "long" : 144.94889999925752,
  "name" : "Royal Children's Hospital",
  "postcode" : 3052
}, {
  "address" : "32,GISBORNESTREET,EAST MELBOURNE",
  "lat" : -37.808799999785606,
  "long" : 144.97609999756904,
  "name" : "Royal Victorian Eye and Ear Hospital",
  "postcode" : 3002
}, {
  "address" : "20,FLEMINGTONROAD,PARKVILLE",
  "lat" : -37.799156990504095,
  "long" : 144.955172189062,
  "name" : "Royal Women's Hospital",
  "postcode" : 3052
}, {
  "address" : "21,HOSPITALROAD,TIMBOON",
  "lat" : -38.48649999783647,
  "long" : 142.97659999867417,
  "name" : "Timboon and District Healthcare Service",
  "postcode" : 3268
}, {
  "address" : "49-71,ADELAIDESTREET,FOOTSCRAY",
  "lat" : -37.79740000071735,
  "long" : 144.88759999668312,
  "name" : "Tweddle Child and Family Health Service",
  "postcode" : 3011
}, {
  "address" : "16-20,KIELLSTREET,CORRYONG",
  "lat" : -36.19880000078053,
  "long" : 147.90320000036942,
  "name" : "Upper Murray Health and Community Services ",
  "postcode" : 3707
}, {
  "address" : "251,MOUNTAINHIGHWAY,WANTIRNA",
  "lat" : -37.8481999995094,
  "long" : 145.22619999954452,
  "name" : "Wantirna Health",
  "postcode" : 3152
}, {
  "address" : "300-310,PRINCESHIGHWAY,WERRIBEE",
  "lat" : -37.88579999905852,
  "long" : 144.6991999969414,
  "name" : "Mercy Public Hospitals Inc ",
  "postcode" : 3030
}, {
  "address" : "41,LANDSBOROUGHSTREET,WARRAGUL",
  "lat" : -38.17279999987378,
  "long" : 145.92750000205413,
  "name" : "West Gippsland Healthcare Group ",
  "postcode" : 3820
}, {
  "address" : "2,CHARLESSTREET,JEPARIT",
  "lat" : -36.14090000044128,
  "long" : 141.98439999641903,
  "name" : "West Wimmera Health Service ",
  "postcode" : 3423
}, {
  "address" : "1-7,ROACHESTREET,KANIVA",
  "lat" : -36.38149999714549,
  "long" : 141.24599999907915,
  "name" : "West Wimmera Health Service ",
  "postcode" : 3419
}, {
  "address" : "51,NELSONSTREET,NHILL",
  "lat" : -36.33389999959307,
  "long" : 141.65609999759218,
  "name" : "West Wimmera Health Service ",
  "postcode" : 3418
}, {
  "address" : "2,SWINBOURNEAVENUE,RAINBOW",
  "lat" : -35.904100000131585,
  "long" : 141.99509999930675,
  "name" : "West Wimmera Health Service ",
  "postcode" : 3424
}, {
  "address" : "20,FOSTERSTREET,HAMILTON",
  "lat" : -37.737300000559756,
  "long" : 142.03010000326375,
  "name" : "Hamilton Base Hospital",
  "postcode" : 3300
}, {
  "address" : "146,COBBSTREET,PENSHURST",
  "lat" : -37.87719999941089,
  "long" : 142.28249999896548,
  "name" : "Penshurst & District Memorial Hospital",
  "postcode" : 3289
}, {
  "address" : "71,MCLEODSTREET,COLERAINE",
  "lat" : -37.5998000007903,
  "long" : 141.69250000251856,
  "name" : "Western District Health Service ",
  "postcode" : 3315
}, {
  "address" : "160,GORDONSTREET,FOOTSCRAY",
  "lat" : -37.79239999798652,
  "long" : 144.88740000099267,
  "name" : "Western Hospital ",
  "postcode" : 3011
}, {
  "address" : "76A,RAILWAYCRESCENT,WILLIAMSTOWN",
  "lat" : -37.86359999996873,
  "long" : 144.8928000033737,
  "name" : "Williamstown Hospital",
  "postcode" : 3016
}, {
  "address" : "32,ANDERSONSTREET,DIMBOOLA",
  "lat" : -36.44970000094239,
  "long" : 142.02419999950075,
  "name" : "Wimmera Base Hospital ",
  "postcode" : 3414
}, {
  "address" : "83,BAILLIESTREET,HORSHAM",
  "lat" : -36.711899999050964,
  "long" : 142.20920000258604,
  "name" : "Wimmera Base Hospital ",
  "postcode" : 3400
}, {
  "address" : "53-81,VERMONTSTREET,WODONGA",
  "lat" : -36.13179999851128,
  "long" : 146.8795000013046,
  "name" : "Albury Wodonga Health ",
  "postcode" : 3690
}, {
  "address" : "85-91,COMMERCIALROAD,YARRAM",
  "lat" : -38.557100000754396,
  "long" : 146.67809999716664,
  "name" : "Yarram and District Health Service",
  "postcode" : 3971
}, {
  "address" : "33,PIPERSTREET,YARRAWONGA",
  "lat" : -36.011198047197986,
  "long" : 146.0068327042487,
  "name" : "Yarrawonga Health",
  "postcode" : 3730
}, {
  "address" : "45,STATIONSTREET,YEA",
  "lat" : -37.21389999909978,
  "long" : 145.4312999993286,
  "name" : "Yea and District Memorial Hospital",
  "postcode" : 3717
}, {
  "address" : "25,MARKETSTREET,LILYDALE",
  "lat" : -37.75659999921525,
  "long" : 145.3514000033507,
  "name" : "Yarra Ranges Health",
  "postcode" : 3140
}, {
  "address" : "125,GOLF LINKSROAD,FRANKSTON",
  "lat" : -38.17279999996511,
  "long" : 145.14959999878005,
  "name" : "Golf Links Road Rehabilitation Centre",
  "postcode" : 3199
}, {
  "address" : "24,SEPARATIONSTREET,MORNINGTON",
  "lat" : -38.23009999754484,
  "long" : 145.041599995821,
  "name" : "The Mornington Centre",
  "postcode" : 3931
}, {
  "address" : "7,MACEDONSTREET,SUNBURY",
  "lat" : -37.57719999813373,
  "long" : 144.73269999745307,
  "name" : "Sunbury Day Hospital",
  "postcode" : 3429
}, {
  "address" : "33-43,MCCLELLANDAVENUE,SEA LAKE",
  "lat" : -35.500500000476315,
  "long" : 142.85769999717687,
  "name" : "Mallee Track Health & Community Service ",
  "postcode" : 3533
}, {
  "address" : "10,MAVISSTREET,FOOTSCRAY",
  "lat" : -37.79109999809761,
  "long" : 144.88710000369403,
  "name" : "Orygen Inpatient Unit",
  "postcode" : 3011
}, {
  "address" : "191-193,BLUFFROAD,SANDRINGHAM",
  "lat" : -37.96099999842689,
  "long" : 145.01849999967223,
  "name" : "Women's Sandringham",
  "postcode" : 3191
}, {
  "address" : "160,GORDONSTREET,FOOTSCRAY",
  "lat" : -37.791621727948886,
  "long" : 144.8869763996243,
  "name" : "Ursula Frayne Centre",
  "postcode" : 3011
}, {
  "address" : "2,ST ANDREWSPLACE,EAST MELBOURNE",
  "lat" : -37.81187259096168,
  "long" : 144.97738019169765,
  "name" : "Eye and Ear on the Park",
  "postcode" : 3002
} ]
